,City,Latitude,Longitude,Max_Temperature,Humidity,Cloudiness,Wind_Speed
0,Chuy,-33.69,-53.46,50.27,81,0,2.42
1,Kaitangata,-46.28,169.85,44.01,88,100,13
2,Atuona,-9.8,-139.03,79.79,71,6,24.81
3,Saskylakh,71.97,114.09,58.73,53,0,6.93
4,Rikitea,-23.12,-134.97,71.15,82,100,16.73
5,Punta Arenas,-53.16,-70.91,35.6,55,75,17.22
6,Ushuaia,-54.81,-68.31,26.6,86,75,28.86
7,Yellowknife,62.45,-114.38,60.8,63,75,2.24
8,Longyearbyen,78.22,15.63,44.6,70,75,5.82
9,Arraial do Cabo,-22.97,-42.02,77,73,0,14.99
10,Muros,42.77,-9.06,66,77,40,4.7
11,Nemuro,43.32,145.57,59.45,83,100,5.5
12,Konevo,41.67,25.61,80.01,62,0,1.01
13,Ponta do Sol,-20.63,-46,70.25,49,35,5.01
14,Erzurum,39.91,41.27,64.4,52,0,10.29
15,Dwarka,28.58,77.04,90,83,40,3.36
16,Mahebourg,-20.41,57.7,69.8,68,40,11.41
17,Georgetown,6.8,-58.16,87.8,70,40,13.87
18,Bredasdorp,-34.53,20.04,60.01,62,0,6.93
19,Avarua,-21.21,-159.78,78.8,83,38,3.36
20,Norman Wells,65.28,-126.83,51.8,93,90,6.93
21,Victoria,5.28,115.24,82.4,83,75,2.24
22,Kantang,7.42,99.52,75.65,95,100,4.43
23,Bara,10.41,10.6,74.93,82,71,4.25
24,Ahipara,-35.17,173.16,57.99,100,0,27.56
25,Podstepki,53.52,49.14,62.6,100,75,6.71
26,Torbay,47.66,-52.73,73,94,75,9.17
27,Puerto Ayora,-0.74,-90.35,75.2,69,20,21.92
28,Bitkine,11.98,18.21,77.99,81,100,2.35
29,Port Alfred,-33.59,26.89,59,63,0,3
30,Bharuch,21.71,73,81.41,75,88,21.03
31,Kahului,20.89,-156.47,84.99,66,40,5.82
32,Haines Junction,60.75,-137.51,59.81,36,3,2.42
33,Geraldton,49.72,-86.95,75.2,44,40,8.05
34,Mecca,21.43,39.83,88.97,48,0,4.63
35,Hermanus,-34.42,19.24,60.01,60,70,8.01
36,Vaini,15.34,74.49,76.19,88,44,8.28
37,Dzilam Gonzalez,21.28,-88.93,89.01,75,94,18.01
38,Bethel,60.79,-161.76,64.4,77,75,6.93
39,Gayny,60.3,54.33,50.09,97,100,6.53
40,Cayenne,4.94,-52.33,77,88,87,4.7
41,Chokurdakh,70.62,147.9,62.33,56,8,10.33
42,Khatanga,71.98,102.47,64.49,72,51,8.66
43,New Norfolk,-42.78,147.06,46.4,75,40,11.41
44,Kaeo,-35.1,173.78,59,100,65,12.44
45,Bonavista,48.65,-53.11,63,76,42,1.99
46,Esso,55.93,158.7,50.81,79,100,4.43
47,Faanui,-16.48,-151.75,79.25,81,36,19.6
48,Bambous Virieux,-20.34,57.76,69.8,68,40,11.41
49,Carnarvon,-30.97,22.13,50.63,21,0,10.71
50,Busselton,-33.64,115.35,50,58,99,18.16
51,Ribeira Grande,38.52,-28.7,71.6,78,40,18.34
52,Aklavik,68.22,-135.01,44.6,93,90,6.93
53,Atar,20.52,-13.05,104.45,12,7,14.58
54,Umm Kaddadah,13.6,26.69,82.67,44,94,12.39
55,Cherskiy,68.75,161.3,54.05,75,2,6.08
56,Albany,42.65,-73.75,75.2,38,40,16.11
57,Jamestown,-33.21,138.6,44.87,95,82,13.76
58,Sanica,44.62,16.65,75.2,83,0,2.24
59,Rajsamand,25.06,73.89,73.31,92,100,12.57
60,Butaritari,3.07,172.79,83.39,76,88,10.74
61,Mataura,-46.19,168.86,41,90,100,8.01
62,Sivas,39.75,37.01,55.4,66,0,11.41
63,East London,-33.02,27.91,63.05,24,0,6.24
64,Lompoc,34.64,-120.46,84.99,73,1,13.87
65,Wenling,28.38,121.38,80.01,53,84,5.3
66,Manggar,-2.88,108.27,73.31,90,33,3.09
67,Grindavik,63.84,-22.43,50,61,40,19.46
68,Victoria,5.28,115.24,82.4,83,75,2.24
69,Komsomolskiy,67.55,63.78,40.73,71,100,6.87
70,Dikson,73.51,80.55,40.91,94,6,1.36
71,Port Lincoln,-34.72,135.86,53.87,75,83,23.64
72,Taywarah,33.35,64.42,61.61,28,0,7.29
73,Ulladulla,-35.36,150.48,48.2,57,84,26.4
74,Pevek,69.7,170.27,40.19,93,0,7.9
75,Port Elizabeth,39.31,-74.98,86,39,75,8.05
76,Jawhar,19.91,73.23,76.73,90,68,11.77
77,Tuktoyaktuk,69.44,-133.03,39.2,93,90,4.7
78,Hilo,19.71,-155.08,82.4,69,75,6.11
79,Joshimath,30.57,79.57,56.57,95,91,0.29
80,Touros,-5.2,-35.46,80.6,69,20,11.41
81,Narsaq,60.91,-46.05,59,58,40,9.17
82,Scottsbluff,41.87,-103.67,82.4,65,1,4.7
83,Cap Malheureux,-19.98,57.61,69.8,68,40,11.41
84,Fereydun Kenar,36.69,52.52,78.8,78,90,2.24
85,Voyvozh,62.89,54.96,45.05,84,68,6.58
86,Lethbridge,49.69,-112.85,57.99,82,90,8.05
87,Nioro,13.79,-15.05,83.75,62,59,14.63
88,Porto,41.15,-8.61,69.01,82,0,5.82
89,Ternate,14.29,120.72,84.99,83,75,10.29
90,Vardo,39.62,-77.74,84.2,35,40,11.41
91,Kruisfontein,-34,24.73,48.29,69,0,5.95
92,Castro,-42.48,-73.76,48.2,100,90,6.93
93,Qaanaaq,77.48,-69.36,43.61,66,100,1.68
94,Barrow,-38.31,-60.23,56.21,42,0,8.99
95,Hasaki,35.73,140.83,75.2,100,20,1.12
96,Soyo,-6.13,12.37,73.4,78,40,5.82
97,Wokha,26.1,94.25,75.29,92,98,2.57
98,Ancud,-41.87,-73.83,48.2,100,90,6.93
99,Vestmannaeyjar,63.44,-20.27,51.53,63,0,25.01
100,Sola,-3.17,33.8,70.25,66,87,1.88
101,Pringsewu,-5.36,104.98,67.01,97,93,1.77
102,Araouane,18.9,-3.53,102.83,18,47,12.24
103,Madhogarh,28.31,76.03,84.29,71,54,7.02
104,Kaffrine,14.1,-15.55,80.33,70,40,14.63
105,Samarai,-10.62,150.67,74.39,93,46,4.43
106,Constitucion,23.99,-104.67,81,30,75,9.17
107,Felipe Carrillo Puerto,19.58,-88.05,98.87,33,89,6.6
108,Waddan,29.16,16.14,81.77,39,0,6.93
109,San Rafael,-34.61,-68.33,61.61,8,63,16.28
110,Hambantota,6.12,81.12,80.51,81,100,19.1
111,Bafata,12.17,-14.67,77.63,93,100,5.91
112,Half Moon Bay,37.46,-122.43,79,88,75,6.93
113,Pemba,-12.97,40.52,75.2,78,20,18.34
114,Nome,30.04,-94.42,98.01,59,20,10.29
115,Ponta Delgada,37.73,-25.67,66.2,100,75,6.93
116,Tuni,-16.67,-68.14,51.8,37,75,10.29
117,Tiksi,71.64,128.87,50.27,78,0,4.43
118,Bluff,-23.58,149.07,47.21,43,0,7.2
119,Wanning,48.64,13.53,66.99,93,90,2.24
120,Elko,40.83,-115.76,87.01,20,1,14.99
121,Padang,-0.92,100.36,80.51,84,100,12.97
122,Okhotsk,59.36,143.24,53.69,86,100,1.97
123,Hokitika,-42.72,170.96,48.83,79,100,7.43
124,Miri,10.31,9.75,71.15,91,99,4.45
125,Pyapon,16.29,95.68,78.53,90,100,9.95
126,Alekseyevka,53.25,50.49,62.6,100,75,6.71
127,Dombarovskiy,50.76,59.54,72.05,22,81,7.99
128,Kavieng,-2.57,150.8,83.03,71,99,5.01
129,Esfarayen,37.08,57.51,71.6,30,0,4.7
130,Trenggalek,-8.05,111.71,63.23,93,93,3.13
131,Okoneshnikovo,54.84,75.08,60.17,64,100,7.78
132,Ostrovnoy,68.05,39.51,39.29,76,99,5.59
133,Nabire,-3.36,135.5,70.97,96,99,2.89
134,Lata,30.78,78.62,43.25,96,68,0.43
135,Palmas,-10.18,-48.33,91.4,27,0,10.29
136,Port-Cartier,50.03,-66.88,64.99,82,75,8.05
137,Tingi,-11.3,35.03,64.85,60,1,4.03
138,Provideniya,64.42,-173.23,51.17,91,100,2.66
139,Tasiilaq,65.61,-37.64,44.6,81,75,6.93
140,Cape Town,-33.93,18.42,59,82,20,12.75
141,Northam,-31.65,116.67,53.6,66,0,19.46
142,Wajima,37.4,136.9,78.89,81,0,18.61
143,Bilibino,68.06,166.44,61.97,61,2,1.72
144,Ilulissat,69.22,-51.1,50,46,20,3.36
145,Tautira,-17.73,-149.15,80.6,69,40,8.05
146,Flinders,-34.58,150.85,48.99,57,33,26.4
147,Tiznit,29.7,-9.73,68.63,86,100,12.33
148,Salalah,17.01,54.1,77,94,90,2.24
149,Cairns,-16.92,145.77,64.4,72,40,8.05
150,Nouadhibou,20.93,-17.03,75.2,69,0,23.04
151,Kieta,-6.22,155.63,79.43,78,94,4.99
152,Emba,34.81,32.42,80.6,88,20,5.82
153,Ucluelet,48.94,-125.55,68,63,75,11.41
154,Valer,41.76,-6.18,61.07,53,100,5.21
155,Delbruck,51.77,8.57,73.4,46,0,13.87
156,Saint-Philippe,45.36,-73.48,71.01,68,75,11.41
157,Urengoy,65.96,78.37,48.29,75,100,8.72
158,Numan,9.46,12.04,74.75,92,100,6.02
159,Oksovskiy,62.61,39.91,40.55,87,25,5.23
160,Christchurch,-43.53,172.64,42.01,93,99,9.17
161,Khao Yoi,13.24,99.82,77.09,83,100,3.87
162,Yar-Sale,66.83,70.83,41.63,90,0,6.69
163,Uruzgan,32.93,66.63,61.97,67,0,5.5
164,Coihaique,-45.58,-72.07,51.8,53,75,8.05
165,La Ronge,55.1,-105.3,60.8,51,75,18.34
166,Tornio,61.12,27.27,60.8,76,0,6.93
167,Kaifeng,34.8,114.35,73.4,94,0,6.71
168,Tessalit,20.2,1.01,98.51,8,0,5.66
169,Omsukchan,62.53,155.8,57.11,59,7,7.05
170,Dhidhdhoo,6.88,73.1,83.03,79,100,14.23
171,Rabo de Peixe,37.8,-25.58,66.2,100,75,6.93
172,Moose Factory,51.26,-80.61,66.2,63,75,10.29
173,Guacimo,8.09,-76.36,87.8,70,20,13.87
174,Teahupoo,-17.83,-149.27,80.6,69,40,8.05
175,Butembo,0.12,29.29,61.61,97,96,2.19
176,Pisco,-13.71,-76.2,71.6,30,20,9.17
177,Nelson Bay,-32.72,152.14,50,61,0,25.28
178,Suba,28.73,103.51,66.83,50,0,5.53
179,San Patricio,-26.98,-56.83,58.19,79,0,3.71
180,Tezu,27.93,96.16,78.53,75,100,1.19
181,Clyde River,70.47,-68.59,48.2,81,5,14.99
182,Tynda,55.15,124.74,54.05,93,99,1.05
183,Kloulklubed,7.04,134.26,77,94,40,12.37
184,Fairbanks,64.84,-147.72,63,82,90,2.55
185,Moussoro,13.64,16.49,83.75,51,6,9.64
186,Hithadhoo,-0.6,73.08,83.03,79,100,12.06
187,Codrington,-28.95,153.24,51.8,37,0,12.75
188,Hobart,-42.88,147.33,46.4,75,40,11.41
189,Sturgis,51.94,-102.54,62.87,55,62,12.71
190,Bani Walid,31.76,14,69.71,98,1,7
191,Luderitz,-26.65,15.16,55.4,87,24,11.41
192,Bathsheba,13.22,-59.52,86,66,40,14.99
193,Yarmouth,43.84,-66.12,69.8,68,20,12.75
194,Trinidad,-14.83,-64.9,80.6,47,0,9.17
195,Sorland,67.67,12.69,58.91,76,100,16.24
196,Lebu,8.96,38.73,54.95,95,100,1.88
197,Maumere,-8.63,122.22,74.57,71,100,3.27
198,Sept-Iles,50.2,-66.38,64.99,82,75,8.05
199,Ballina,54.11,-9.15,57.99,100,75,14.99
200,Vila Franca do Campo,37.72,-25.43,66.2,100,75,6.93
201,Sumbe,-11.2,13.84,70.43,93,77,12.91
202,Tateyama,36.66,137.31,80.01,82,95,10.45
203,Mehamn,71.03,27.85,43.07,78,100,16.4
204,Inhambane,-23.87,35.38,64.4,82,20,3.11
205,Siocon,11.03,124.04,77.63,78,41,8.34
206,Mount Gambier,-37.83,140.78,42.8,75,40,16.11
207,Nikolskoye,59.7,30.79,57.2,76,0,4.47
208,Luohe,33.57,114.03,71.33,95,24,10.38
209,Luangwa,-15.62,30.4,63.23,69,25,3.51
210,Okha,53.59,142.95,52.43,88,0,6.89
211,Srednekolymsk,67.46,153.71,60.71,59,44,13.51
212,Mamallapuram,12.63,80.17,89.6,59,75,8.05
213,Santa Cruz,-6.22,-36.02,74.39,71,20,18.57
214,Lucea,18.44,-78.17,87.8,70,75,11.41
215,Simbahan,6.3,120.58,81.59,83,71,13.62
216,Banjar,-7.37,108.54,68.81,87,100,1.7
217,Miraflores,-16.39,-71.52,68,8,0,9.17
218,Mar del Plata,-46.43,-67.52,41.81,60,100,5.64
219,Kurilsk,45.23,147.88,57.65,77,100,9.1
220,Airai,-8.93,125.41,69.53,85,81,3.04
221,Morro Bay,35.37,-120.85,84.99,82,75,8.05
222,Thompson,55.74,-97.86,62.6,48,75,20.8
223,Jieshi,22.82,115.83,86,89,92,3
224,Cidreira,-30.17,-50.22,58.19,75,100,13.15
225,Necochea,-38.55,-58.74,54.77,55,30,5.93
226,Tiarei,-17.53,-149.33,80.6,69,40,8.05
227,Hamilton,43.26,-79.87,79,47,40,12.75
228,Ostersund,63.18,14.64,57.2,87,90,13.87
229,Baracoa,20.35,-74.5,84.83,77,52,12.71
230,Margate,-43.03,147.26,46.4,75,40,14.99
231,Aden,12.79,45.03,91.49,53,100,11.43
232,Yumen,40.29,97.04,74.93,27,0,17.31
233,Curup,-3.47,102.53,63.05,95,100,1.88
234,Raymond,49.47,-112.67,57.99,82,90,8.05
235,Palkino,57.54,28.01,59,93,78,2.24
236,Upernavik,72.79,-56.15,43.97,61,39,5.06
237,Campo Verde,-8.47,-74.81,93.11,37,42,1.99
238,Senneterre,48.39,-77.24,62.6,63,75,11.41
239,Comodoro Rivadavia,-45.87,-67.48,44.6,75,90,5.82
240,Guapi,2.57,-77.89,81.59,81,84,8.1
241,Cordoba,-27.78,-67.24,62.69,11,0,6.82
242,Antofagasta,-23.65,-70.4,59,62,20,11.41
243,Pontianak,-0.02,109.34,80.69,80,100,14.9
244,Dingli,28.39,75.51,84.83,71,25,9.28
245,Taunggyi,20.78,97.03,67.55,96,100,1.41
246,Caxito,-22.65,-42.51,77,73,20,13.87
247,Buraydah,26.33,43.97,89.6,21,0,5.82
248,Tagusao,9.19,117.81,80.33,74,98,4.7
249,Jumla,29.28,82.18,55.31,95,100,1.39
250,Buin,-33.73,-70.74,62.6,29,100,4.7
251,Bridlington,54.08,-0.19,64.99,68,87,17.22
252,Bako,12.29,-0.73,79.61,71,92,8.99
253,Yarada,17.65,83.27,81.41,82,94,10.8
254,Camacha,33.08,-16.33,73.4,73,20,10.29
255,Itoman,26.12,127.67,84.2,89,75,16.11
256,Haputale,6.77,80.96,68.09,94,100,2.01
257,Zofingen,47.29,7.95,68,88,90,1.12
258,Vila,45.18,8.4,82,74,0,9.17
259,Derac,19.65,-71.82,87.8,62,40,13.87
260,Leningradskiy,69.38,178.42,40.91,94,100,18.57
261,North Platte,41.12,-100.77,86,74,1,6.93
262,Hualmay,-11.1,-77.61,59.99,86,6,14.99
263,Tema,5.66,-0.01,77,83,0,13.87
264,Kapaa,22.08,-159.32,86,70,40,8.05
265,San Ramon,12.92,-85.84,77,73,75,10.8
266,Beaufort,5.36,115.76,82.4,83,75,2.24
267,Podgorenskiy,50.4,39.64,56.93,80,20,12.03
268,Trairi,-3.28,-39.27,76.01,64,0,6.22
269,High Level,58.52,-117.13,60.8,48,75,5.82
270,Massakory,13,15.73,81.77,63,0,3.76
271,Camacupa,-12.02,17.48,60.17,29,0,2.33
272,Muzhi,65.4,64.7,46.13,78,100,6.51
273,Kattivakkam,13.22,80.32,89.6,59,75,8.05
274,Karpathos,35.51,27.21,77,83,0,25.28
275,Belmopan,17.25,-88.77,95,47,40,11.41
276,Broome,52.47,1.45,66.2,63,0,19.46
277,Dingle,11,122.67,74.57,89,91,5.84
278,Tepulco,19.12,-97.98,71.6,46,75,8.05
279,Alta Floresta,-9.87,-56.08,96.8,20,0,6.93
280,Pombas,-15.9,-54.74,88.25,18,0,4.25
281,Hoquiam,46.98,-123.89,73,88,1,8.05
282,Sinazongwe,-17.26,27.46,61.61,50,0,4.12
283,Villa Carlos Paz,-31.42,-64.5,70,23,0,16.11
284,Wabash,40.8,-85.82,82.99,41,1,6.93
285,Chara,39.42,22.43,82.4,48,0,5.82
286,Uyuni,-20.46,-66.82,48.11,16,0,8.3
287,San Quintin,17.54,120.52,76.73,92,100,8.86
288,Vostok,46.45,135.83,54.77,98,100,4.61
289,Durango,24.02,-104.67,81,30,75,9.17
290,Marawi,8,124.29,73.99,75,91,3
291,Terrace,54.52,-128.61,64.99,72,75,4.7
292,Kropotkin,45.43,40.58,67.19,58,0,7.94
293,Wadena,51.95,-103.8,64.31,52,94,12.62
294,Sinnamary,5.38,-52.96,82.67,76,46,13.06
295,Palmer,-34.85,139.16,51.8,81,75,21.92
296,Sudak,44.85,34.97,63.95,61,0,2.95
297,Bar Harbor,44.39,-68.2,66.99,82,75,4.7
298,Anqing,30.51,117.04,77.99,89,50,7.18
299,Temirtau,50.05,72.96,48.2,70,0,4.47
300,Linxia,35.6,103.21,53.33,44,0,8.01
301,Uvinza,-5.1,30.39,68.63,56,0,2.57
302,Rawson,-43.3,-65.11,53.69,49,100,12.73
303,Cap-aux-Meules,47.38,-61.86,71.6,73,75,5.82
304,Atambua,-9.11,124.89,76.19,80,31,9.64
305,Zlate Moravce,48.39,18.4,79,94,75,8.05
306,Warrington,53.39,-2.59,62.6,77,75,13.87
307,San Andres,13.32,122.68,80.15,81,45,11.12
308,Griffith,-34.29,146.06,43,93,90,20.8
309,Ilo,-17.65,-71.34,62.6,77,90,5.82
310,Paamiut,61.99,-49.67,41.45,95,1,7.09
311,Dickinson,46.88,-102.79,84.99,57,40,14.99
312,Zaozerne,51.37,23.94,65.57,92,100,6.67
313,Olinda,-37.84,145.39,43,86,40,14.99
314,Cabo San Lucas,22.89,-109.91,93,52,20,9.17
315,Kulhudhuffushi,6.62,73.07,83.57,79,100,14.5
316,Araxa,-19.59,-46.94,70.79,44,16,0.58
317,Coroico,-16.19,-67.73,51.8,82,75,10.29
318,Makhinjauri,41.67,41.69,73.4,88,75,10.29
319,Zhaotong,27.34,103.71,54.95,75,0,1.66
320,Kudahuvadhoo,2.67,72.89,83.21,79,97,9.71
321,Okahandja,-21.98,16.91,68,24,4,3.36
322,Havre-Saint-Pierre,50.23,-63.6,69.8,56,1,5.82
323,Vao,59.1,26.19,60.35,76,100,6.2
324,Champerico,16.38,-93.6,86,62,75,3.36
325,Laguna,16.17,-88.94,86,74,40,6.93
326,Sechura,-5.56,-80.82,64.49,78,8,15.68
327,Esperance,-33.86,121.89,44.6,100,47,6.93
328,Chernukha,55.6,43.76,55.67,96,100,10.54
329,Apac,1.98,32.53,66.11,90,99,1.79
330,Andilamena,-17.01,48.57,57.29,81,33,15.57
331,Huangnihe,43.56,128.02,65.75,98,100,1.63
332,Ambon,47.55,-2.56,66,87,75,5.82
333,Tarko-Sale,64.92,77.78,46,89,100,9.17
334,Lerwick,60.15,-1.15,60.8,100,100,3.36
335,Itarema,-2.92,-39.92,77.27,68,0,12.24
336,Tura,64.27,100.22,56.39,78,86,2.55
337,Richards Bay,-28.77,32.06,68.09,76,0,30.8
338,Baturaja,-4.12,104.17,69.71,92,55,2.42
339,Moosburg,46.66,14.17,80.6,65,40,2.24
340,Portland,43.66,-70.25,75.99,44,40,16.11
341,Severo-Kurilsk,50.68,156.12,49.19,89,100,13.78
342,Ikungi,-5.13,34.77,64.49,59,52,12.8
343,Linqiong,30.42,103.46,73.4,88,0,7.81
344,Belmonte,40.36,-7.35,75,70,100,4
345,Mondeville,49.18,-0.32,66.2,77,90,10.29
346,Bouza,14.42,6.04,86.81,49,3,7.85
347,Souillac,45.6,-0.6,69.8,60,0,6.93
348,Anadyr,64.73,177.51,55.4,87,75,4.47
349,Santo Domingo,18.48,-69.94,89.6,66,20,11.41
350,Fare,-16.7,-151.02,78.89,81,15,19.57
351,Kampot,10.62,104.18,82.4,94,75,13.87
352,Leh,34.16,77.58,46.31,70,83,4.88
353,Mongo,-5.62,14.6,74.93,56,0,6.24
354,Leshukonskoye,64.9,45.76,36.05,86,53,4.32
355,Nizhniy Tsasuchey,50.52,115.13,54.23,90,7,1.83
356,Bam,29.11,58.36,65.21,27,0,1.1
357,Huaicheng,23.91,112.19,77.99,91,13,0.96
358,Monroe,41.91,-83.4,82.99,44,40,6.93
359,Shakawe,-18.36,21.84,63.23,26,11,4.97
360,Praia da Vitoria,38.73,-27.07,70,94,40,24.45
361,Ugoofaaru,5.67,73,84.29,75,100,11.79
362,Posse,-14.08,-46.36,80.69,38,100,4.09
363,Hirara,24.8,125.28,84.29,88,80,16.6
364,Chengzihe,45.35,131,63.77,98,100,5.53
365,Homer,59.64,-151.54,72,67,1,6.93
366,Lodwar,3.12,35.6,84.83,35,86,6.73
367,Viljoenskroon,-27.21,26.95,57,71,0,1.99
368,Saint-Pierre,48.95,4.24,71.6,60,0,8.05
369,Lavrentiya,65.58,-170.99,49.91,96,100,2.55
370,Naze,5.43,7.07,74.75,91,100,4.92
371,Lorengau,-2.02,147.27,80.51,82,97,5.79
372,Saldanha,41.42,-6.55,65.39,55,100,14.43
373,Kaduna,10.52,7.44,70.79,96,100,3.74
374,Praya,-8.71,116.27,68,94,20,6.31
375,Sioux Lookout,50.1,-91.92,78.8,47,1,12.75
376,Santa Marta,11.24,-74.21,96.8,60,20,6.93
377,Matamoros,25.87,-97.51,98.6,50,1,18.34
378,Bireun,5.2,96.7,69.89,80,100,5.5
379,Vallenar,-28.58,-70.76,62.33,34,0,6.42
380,Bambanglipuro,-7.95,110.28,72.77,87,44,11.16
381,Skiathos,39.16,23.49,84.2,53,0,3.36
382,Raudeberg,61.99,5.14,62.01,93,100,2.24
383,Marsa Matruh,31.35,27.25,80.6,69,0,3.36
384,High Rock,26.63,-78.28,89.6,75,40,5.82
385,College,64.86,-147.8,64.4,82,90,2.55
386,Mabaruma,8.2,-59.78,78.89,95,80,2.55
387,Wanaka,-44.7,169.14,36,83,100,2.8
388,Quipama,5.52,-74.18,91.49,35,2,1.28
389,San Vicente,-0.59,-80.41,80.6,65,20,11.41
390,Nuuk,64.17,-51.74,51.8,71,5,6.93
391,Saint George,39.45,22.34,82.4,48,0,5.82
392,Kirovo-Chepetsk,58.54,50.03,55.13,98,99,2.68
393,Abha,18.22,42.5,62.6,87,40,5.82
394,Nanortalik,60.14,-45.24,46.13,85,100,4.25
395,Krasnyy Chikoy,50.36,108.75,52.25,94,18,3.09
396,Te Anau,-45.41,167.72,33.71,90,100,2.35
397,Worland,44.02,-107.96,90,24,1,5.82
398,Havelock,34.88,-76.9,86,79,90,6.85
399,Pak Phanang,8.35,100.2,75.83,91,100,3.8
400,Walvis Bay,-22.95,14.51,66.2,88,68,3.36
401,Kushima,31.5,131.29,76.37,96,100,7.2
402,Uppsala,59.86,17.64,61,100,100,8.05
403,Maniitsoq,65.42,-52.9,47.39,79,0,8.34
404,Talnakh,69.49,88.39,55.4,93,58,11.18
405,Fortuna,40.6,-124.16,71.6,64,40,8.05
406,Abu Kamal,34.45,40.92,86.99,34,0,20.6
407,Henties Bay,-22.12,14.28,54,94,59,7
408,Tokmak,47.26,35.7,65.75,58,65,6.31
409,Maldonado,-34.91,-54.96,57.2,54,0,9.17
410,Coahuayana,18.62,-100.35,85.19,66,85,3.87
411,Rong Kwang,18.34,100.32,72.05,97,96,1.39
412,Kavaratti,10.57,72.64,83.39,80,69,23
413,Nyurba,63.29,118.35,52.79,84,0,2.46
414,Meulaboh,4.14,96.13,80.87,75,100,8.75
415,Hisai,34.67,136.47,80.6,83,75,3.36
416,Puerto Suarez,-18.96,-57.8,78.8,57,0,4.7
417,Kodiak,39.95,-94.76,91.99,59,20,11.41
418,Tevriz,57.51,72.4,56.39,71,98,3.98
419,Hillsborough,37.57,-122.38,78.01,64,40,12.75
420,Xihe,34.02,105.29,59.27,40,0,4.54
421,Omboue,-1.57,9.26,71.69,80,79,10.27
422,Andra,62.52,65.89,53.87,65,100,4.03
423,Hofn,64.25,-15.21,35.87,78,6,20.36
424,Shache,38.42,77.24,82,50,1,3.47
425,Yerbogachen,61.28,108.01,56.03,78,35,5.35
426,Kathu,-27.7,23.05,63,52,0,6.8
427,Bima,-8.45,118.73,64.49,94,100,1.59
428,Manono,-7.3,27.4,72.41,34,3,2.39
429,Rio Gallegos,-51.62,-69.22,37.4,44,75,20.8
430,Dongsheng,29.72,112.52,73.31,92,0,5.75
431,North Reading,42.58,-71.08,75.2,60,90,12.75
432,Manaus,-3.13,-59.98,91.4,52,20,3.36
433,Marolambo,-20.05,48.13,56.03,98,54,2.21
434,Loa Janan,-0.58,117.09,72.41,99,70,2.21
435,Mogadishu,2.04,45.34,74.75,82,1,12.03
436,Tashla,53.71,49.75,62.6,100,75,6.71
437,Kirakira,-10.46,161.92,77.99,87,86,10.49
438,Koson,39.04,65.59,75.2,47,0,2.24
439,Labuhan,-2.54,115.51,70.79,89,98,1.19
440,Cabedelo,-6.97,-34.84,78.8,74,75,12.75
441,Chontalpa,17.7,-93.52,90.77,59,84,6.26
442,Amurzet,47.69,131.09,55.67,99,100,3.4
443,Nalut,31.86,10.98,77.27,63,0,14.23
444,Menongue,-14.66,17.68,60.35,28,0,6.76
445,Sabha,27.03,14.43,89.15,23,0,16.91
446,Sao Joaquim,-28.29,-49.93,46.67,85,0,7.67
447,Invermere,50.51,-116.03,64.99,82,100,3
448,Altay,47.83,88.13,41.81,77,5,2.48
449,Neuquen,-38.95,-68.06,51.8,32,0,9.17
450,Brae,60.4,-1.35,60.8,100,100,3.36
451,Huarmey,-10.07,-78.15,60.71,86,6,15.41
452,Port Augusta,-32.49,137.76,48.2,87,75,10.29
453,Burns Lake,54.23,-125.76,70.25,38,67,3.53
454,Dehui,44.53,125.71,73.4,88,75,4.47
455,Gat,14.69,-16.54,80.6,69,0,10.29
456,Olkhovatka,50.28,39.3,55.85,83,0,9.24
457,Vila Velha,-3.71,-38.6,86,61,0,18.34
458,Springbok,-29.67,17.88,46.13,76,0,2.3
459,Brazzaville,-4.27,15.27,78.8,61,87,9.17
460,Kondinskoye,59.65,67.41,55.49,81,95,5.61
461,Norfolk,36.85,-76.29,87.8,48,90,6.93
462,Varhaug,58.61,5.65,63,93,75,13.87
463,Adre,13.47,22.2,74.75,76,100,6.93
464,Leeuwarden,53.2,5.79,66.99,68,20,24.16
465,Belaya Gora,68.54,146.19,67.73,55,60,9.64
466,Gadwal,16.23,77.79,75.47,81,23,11.86
467,Qabaqcol,41.72,46.26,77,47,40,13.87
468,Qaqortoq,60.72,-46.03,59,58,40,9.17
469,Morros,-2.87,-44.04,86,70,0,8.05
470,Isangel,-19.55,169.27,77,88,75,13.87
471,Calca,-13.32,-71.96,66.2,20,20,17.22
472,Bucyrus,40.81,-82.98,82.99,44,75,9.17
473,Sambava,-14.27,50.17,63.59,93,47,3.18
474,Arroyo,-11.08,-66.08,91.4,49,40,2.55
475,Cockburn Town,21.46,-71.14,89.6,100,40,13.87
476,Saint-Francois,46.42,3.91,73.4,49,0,2.24
477,Banda Aceh,5.56,95.32,82.49,76,100,23.15
478,Bowen,-20.01,148.25,57,87,65,5.82
479,Gazli,40.13,63.45,73.67,18,0,11.99
480,Yulara,-25.24,130.99,39.2,69,0,5.82
481,Sao Filipe,14.9,-24.5,76.37,73,0,9.66
482,Udachnyy,66.42,112.4,53.6,71,0,6.71
483,Mitsamiouli,-11.38,43.28,76.19,69,33,18.01
484,Inuvik,68.36,-133.71,44.6,87,90,3.36
485,Taltal,-25.41,-70.49,54.77,68,0,4.34
486,West Milford,41.13,-74.37,82.99,39,75,3.36
487,Mahibadhoo,3.78,72.97,83.39,79,91,11.21
488,Weihai,37.5,122.11,84.99,39,100,3
489,Iquique,-20.22,-70.14,59,67,90,9.17
490,Ambilobe,-13.19,49.05,70.07,75,0,5.32
491,Salinopolis,-0.61,-47.36,81.23,81,3,17.4
492,San Lazaro,18.04,-88.66,91.4,75,40,8.05
493,Beloha,-25.17,45.06,63.59,82,5,16.33
494,Celestun,20.87,-90.4,83.57,80,13,16.37
495,Tabou,4.42,-7.36,73.85,81,87,5.21
496,Camopi,3.17,-52.33,77.99,95,61,2.64
497,Laje,-13.18,-39.42,66.29,97,21,5.21
498,Tuy Hoa,13.08,109.3,76.55,77,100,4.36
499,Rafina,38.02,24.01,88,35,0,19.46
500,Oussouye,12.49,-16.54,84.2,74,40,9.17
501,Luanda,-8.83,13.24,69.8,94,0,5.82
502,Jalpan,19,-100.36,75,65,79,7
503,Erdenet,49.03,104.04,56.39,92,0,4.14
504,Porto Novo,-23.68,-45.44,84.2,26,20,5.82
505,Jurilovca,44.77,28.87,75,68,30,3.36
506,Bataipora,-22.3,-53.27,71.51,59,33,7.49
507,Gorontalo,0.54,123.06,68.45,83,84,2.42
508,Devonport,-41.18,146.36,46,54,30,11.01
509,Ust-Koksa,50.27,85.62,35.33,97,18,2.46
510,Watertown,44.9,-97.12,75.99,88,90,6.93
511,Rudnogorsk,57.27,103.75,52.97,96,93,1.86
512,Sitka,37.17,-99.65,88,59,73,8.01
513,Jinji,22.16,112.49,79.25,95,100,5.19
514,Cotonou,6.37,2.43,78.8,88,40,12.75
515,Ust-Kulom,61.69,53.69,49.55,83,95,9.01
516,Grand Gaube,-20.01,57.66,69.8,68,40,11.41
517,Rocha,-34.48,-54.34,47.75,81,0,6.69
518,Talakan,50.29,130.28,59.09,81,100,2.75
519,Santiago del Estero,-27.8,-64.26,68.45,19,0,13
520,Broken Hill,-31.97,141.45,42.8,75,40,17.22
521,Pedernales,0.07,-80.05,72.77,86,6,16.11
522,Gavrilovka Vtoraya,52.88,42.77,55.31,88,66,16.51
523,Phetchabun,16.42,101.16,71.51,99,100,2.91
524,Drayton Valley,53.22,-114.98,55.67,77,100,8.61
525,Tarut,26.57,50.06,95,18,0,4.7
526,Bonoua,5.27,-3.6,75.2,88,20,6.93
527,Shirokiy,53.87,39.17,55,82,63,3
528,Klaksvik,62.23,-6.59,48.2,76,0,27.51
529,Nador,35.17,-2.93,84.2,62,0,2.24
530,Porto Torres,40.84,8.4,78.8,88,0,1.12
531,Filingue,14.35,3.32,88.61,52,1,12.44
532,Auki,12.18,6.51,74.03,82,68,4.21
533,Pinawa,50.15,-95.88,66,86,99,8.3
534,Mariental,-25.72,-49.65,77,44,0,16.11
535,Tam Ky,15.57,108.48,80.6,88,40,2.24
536,Sao Felix do Xingu,-6.64,-51.99,88.25,27,0,3.02
537,Qena,26.16,32.72,89.6,29,0,2.24
538,Kelowna,49.89,-119.5,78.01,60,20,3.36
539,Humberto de Campos,-2.6,-43.46,79.25,68,0,6.67
